{
  "data": [
    {
      "name": "Boston",
      "region": "Massachusetts",
      "country": "United States",
      "coord": {
        "lat": 42.3601,
        "lon": -71.0589
      }
    },
    {
      "name": "Chicago",
      "region": "Illinois",
      "country": "United States",
      "coord": {
        "lat": 41.8781,
        "lon": -87.6298
      }
    },
    {
      "name": "Dallas",
      "region": "Texas",
      "country": "United States",
      "coord": {
        "lat": 32.7767,
        "lon": -96.7970
      }
    },
    {
      "name": "Edmonton",
      "region": "Alberta",
      "country": "Canada",
      "coord": {
        "lat": 53.5461,
        "lon": -113.4938
      }
    },
    {
      "name": "Eugene",
      "region": "Oregon",
      "country": "United States",
      "coord": {
        "lat": 44.0521,
        "lon": -123.0868
      }
    },
    {
      "name": "Port Townsend",
      "region": "Washington",
      "country": "United States",
      "coord": {
        "lat": 48.1170,
        "lon": -122.7605
      }
    },
    {
      "name": "Portland",
      "region": "Oregon",
      "country": "United States",
      "coord": {
        "lat": 45.5231,
        "lon": -122.6765
      }
    },
    {
      "name": "Gdańsk",
      "region": "Pomeranian Voivodeship",
      "country": "Poland",
      "coord": {
        "lat": 54.3520,
        "lon": 18.6466
      }
    },
    {
      "name": "Kraków",
      "region": "Lesser Poland Voivodeship",
      "country": "Poland",
      "coord": {
        "lat": 50.0647,
        "lon": 19.9450
      }
    },
    {
      "name": "Montréal",
      "region": "Quebec",
      "country": "Canada",
      "coord": {
        "lat": 45.5019,
        "lon": -73.5674
      }
    },
    {
      "name": "San Francisco",
      "region": "California",
      "country": "United States",
      "coord": {
        "lat": 37.7749,
        "lon": -122.4194
      }
    },
    {
      "name": "Seattle",
      "region": "Washington",
      "country": "United States",
      "coord": {
        "lat": 47.6062,
        "lon": -122.3321
      }
    },
    {
      "name": "Toronto",
      "region": "Ontario",
      "country": "Canada",
      "coord": {
        "lat": 43.6511,
        "lon": -79.3470
      }
    },
    {
      "name": "Vancouver",
      "region": "British Columbia",
      "country": "Canada",
      "coord": {
        "lat": 49.2627,
        "lon": -123.1843
      }
    },
    {
      "name": "Victoria",
      "region": "British Columbia",
      "country": "Canada",
      "coord": {
        "lat": 48.4284,
        "lon": -123.3656
      }
    },
    {
      "name": "Warszawa",
      "region": "Masovian Voivodeship",
      "country": "Poland",
      "coord": {
        "lat": 52.22977,
        "lon": 21.01178
      }
    }
  ]
}